{"features": [
{ "type": "Feature", "properties": { "Region": "Antofagasta", "Provincia": null, "Comuna": null, "Nombre": "Rio Loa" },
"geometry": {"coordinates": [ -68.6251872, -22.2615151 ], "type": "Point"}},
  
{ "type": "Feature", "properties": { "Region": "Antofagasta", "Provincia": null, "Comuna": null, "Nombre": "Toconce" }, 
"geometry": {"coordinates": [ -68.1662712, -22.2645998 ], "type": "Point"}},
{ "type": "Feature", "properties": { "Region": "Antofagasta", "Provincia": null, "Comuna": null, "Nombre": "Ollague" }, 
"geometry": {"coordinates": [ -68.2528638, -21.2239866 ], "type": "Point"}},
{ "type": "Feature", "properties": { "Region": "Antofagasta", "Provincia": null, "Comuna": null, "Nombre": "Estacion Tigre" }, 
"geometry": {"coordinates": [ -70.0022823, -22.1611075 ], "type": "Point"}},

  
  { "type": "Feature", "properties": { "Region": "Antofagasta", "Provincia": null, "Comuna": null, "Nombre": "Chiuchiu" }, "geometry": { "type": "Point", "coordinates": [ -68.6500665, -22.3428623 ] } },
{ "type": "Feature", "properties": { "Region": "Antofagasta", "Provincia": null, "Comuna": null, "Nombre": "Chela" }, "geometry": { "type": "Point", "coordinates": [ -68.5989325, -21.3495553 ] } },
{ "type": "Feature", "properties": { "Region": "Antofagasta", "Provincia": null, "Comuna": null, "Nombre": "Conchi" }, "geometry": { "type": "Point", "coordinates": [ -68.6227404, -22.0327681 ] } },
{ "type": "Feature", "properties": { "Region": "Antofagasta", "Provincia": null, "Comuna": null, "Nombre": "Cosca" }, "geometry": { "type": "Point", "coordinates": [ -68.3639916, -21.1158871 ] } },
{ "type": "Feature", "properties": { "Region": "Antofagasta", "Provincia": null, "Comuna": null, "Nombre": "Topain" }, "geometry": { "type": "Point", "coordinates": [ -68.3238994, -22.1580655 ] } },
{ "type": "Feature", "properties": { "Region": "Antofagasta", "Provincia": null, "Comuna": null, "Nombre": "Turi" }, "geometry": { "type": "Point", "coordinates": [ -68.30682, -22.2520889 ] } },
{ "type": "Feature", "properties": { "Region": "Antofagasta", "Provincia": null, "Comuna": null, "Nombre": "Tres Puntas" }, "geometry": { "type": "Point", "coordinates": [ -70.2214343, -22.1499676 ] } },
{ "type": "Feature", "properties": { "Region": "Antofagasta", "Provincia": null, "Comuna": null, "Nombre": "Buenaventura" }, "geometry": { "type": "Point", "coordinates": [ -68.2730226, -21.2675699 ] } },
{ "type": "Feature", "properties": { "Region": "Antofagasta", "Provincia": null, "Comuna": null, "Nombre": "Quillagua" }, "geometry": { "type": "Point", "coordinates": [ -69.5349515, -21.6600426 ] } },
{ "type": "Feature", "properties": { "Region": "Antofagasta", "Provincia": null, "Comuna": null, "Nombre": "Ayaviri" }, "geometry": { "type": "Point", "coordinates": [ -68.0962778, -22.0361034 ] } },
{ "type": "Feature", "properties": { "Region": "Antofagasta", "Provincia": null, "Comuna": null, "Nombre": "Tocopilla" }, "geometry": { "type": "Point", "coordinates": [ -70.1960362, -22.088781 ] } },
{ "type": "Feature", "properties": { "Region": "Antofagasta", "Provincia": null, "Comuna": null, "Nombre": "Conchi Viejo" }, "geometry": { "type": "Point", "coordinates": [ -68.7260074, -21.9548283 ] } },
{ "type": "Feature", "properties": { "Region": "Antofagasta", "Provincia": null, "Comuna": null, "Nombre": "El Ojo de San Pedro" }, "geometry": { "type": "Point", "coordinates": [ -68.316667, -21.966667 ] } },
{ "type": "Feature", "properties": { "Region": "Antofagasta", "Provincia": null, "Comuna": null, "Nombre": "Chuquicamata" }, "geometry": { "type": "Point", "coordinates": [ -68.9303083, -22.3171446 ] } },
{ "type": "Feature", "properties": { "Region": "Antofagasta", "Provincia": null, "Comuna": null, "Nombre": "Oficina Toco" }, "geometry": { "type": "Point", "coordinates": [ -69.6049332, -22.0842581 ] } },
{ "type": "Feature", "properties": { "Region": "Antofagasta", "Provincia": null, "Comuna": null, "Nombre": "Condoroma" }, "geometry": { "type": "Point", "coordinates": [ -68.6543603, -21.704912 ] } },
{ "type": "Feature", "properties": { "Region": "Antofagasta", "Provincia": null, "Comuna": null, "Nombre": "Cupo" }, "geometry": { "type": "Point", "coordinates": [ -68.3158205, -22.1130858 ] } },
{ "type": "Feature", "properties": { "Region": "Antofagasta", "Provincia": null, "Comuna": null, "Nombre": "Tapiche" }, "geometry": { "type": "Point", "coordinates": [ -68.5986267, -21.9005256 ] } },
{ "type": "Feature", "properties": { "Region": "Antofagasta", "Provincia": null, "Comuna": null, "Nombre": "Aiquina" }, "geometry": { "type": "Point", "coordinates": [ -68.3227106, -22.2792237 ] } },
{ "type": "Feature", "properties": { "Region": "Antofagasta", "Provincia": null, "Comuna": null, "Nombre": "Ojeda" }, "geometry": { "type": "Point", "coordinates": [ -69.8697251, -22.1120445 ] } },
{ "type": "Feature", "properties": { "Region": "Antofagasta", "Provincia": null, "Comuna": null, "Nombre": "Caspana" }, "geometry": { "type": "Point", "coordinates": [ -68.2128808, -22.3346515 ] } },
{ "type": "Feature", "properties": { "Region": "Antofagasta", "Provincia": null, "Comuna": null, "Nombre": "Colupito" }, "geometry": { "type": "Point", "coordinates": [ -69.9685691, -22.2132528 ] } },
{ "type": "Feature", "properties": { "Region": "Antofagasta", "Provincia": null, "Comuna": null, "Nombre": "La Posada" }, "geometry": { "type": "Point", "coordinates": [ -69.933333, -21.85 ] } },
{ "type": "Feature", "properties": { "Region": "Antofagasta", "Provincia": null, "Comuna": null, "Nombre": "Puntillas" }, "geometry": { "type": "Point", "coordinates": [ -69.740565, -22.0250676 ] } },
{ "type": "Feature", "properties": { "Region": "Antofagasta", "Provincia": null, "Comuna": null, "Nombre": "Carcote" }, "geometry": { "type": "Point", "coordinates": [ -68.4114701, -21.4322496 ] } },
{ "type": "Feature", "properties": { "Region": "Antofagasta", "Provincia": null, "Comuna": null, "Nombre": "Aucanquilcha" }, "geometry": { "type": "Point", "coordinates": [ -68.466667, -21.2 ] } },
{ "type": "Feature", "properties": { "Region": "Antofagasta", "Provincia": null, "Comuna": null, "Nombre": "Puquios" }, "geometry": { "type": "Point", "coordinates": [ -68.366667, -21.033333 ] } },
{ "type": "Feature", "properties": { "Region": "Antofagasta", "Provincia": null, "Comuna": null, "Nombre": "Yuma" }, "geometry": { "type": "Point", "coordinates": [ -68.5, -21.033333 ] } },
{ "type": "Feature", "properties": { "Region": "Antofagasta", "Provincia": null, "Comuna": null, "Nombre": "Caba�a" }, "geometry": { "type": "Point", "coordinates": [ -68.0595946, -22.0645624 ] } },
{ "type": "Feature", "properties": { "Region": "Antofagasta", "Provincia": null, "Comuna": null, "Nombre": "Aimani" }, "geometry": { "type": "Point", "coordinates": [ -68.6673647, -21.6154777 ] } },
{ "type": "Feature", "properties": { "Region": "Antofagasta", "Provincia": null, "Comuna": null, "Nombre": "Grutas" }, "geometry": { "type": "Point", "coordinates": [ -69.6138595, -21.9542603 ] } },
{ "type": "Feature", "properties": { "Region": "Antofagasta", "Provincia": null, "Comuna": null, "Nombre": "Calina" }, "geometry": { "type": "Point", "coordinates": [ -68.5955445, -21.9553827 ] } },
{ "type": "Feature", "properties": { "Region": "Antofagasta", "Provincia": null, "Comuna": null, "Nombre": "Oficina Empresa" }, "geometry": { "type": "Point", "coordinates": [ -69.6207514, -22.037456 ] } },
{ "type": "Feature", "properties": { "Region": "Antofagasta", "Provincia": null, "Comuna": null, "Nombre": "Oficina Rica Aventura" }, "geometry": { "type": "Point", "coordinates": [ -69.6074047, -21.9865286 ] } },
{ "type": "Feature", "properties": { "Region": "Antofagasta", "Provincia": null, "Comuna": null, "Nombre": "Oficina Buena Esperanza" }, "geometry": { "type": "Point", "coordinates": [ -69.6180701, -22.0189236 ] } },
{ "type": "Feature", "properties": { "Region": "Antofagasta", "Provincia": null, "Comuna": null, "Nombre": "Oficina Prosperidad" }, "geometry": { "type": "Point", "coordinates": [ -69.6073189, -21.976899 ] } },
{ "type": "Feature", "properties": { "Region": "Antofagasta", "Provincia": null, "Comuna": null, "Nombre": "Oficina Santa Fe" }, "geometry": { "type": "Point", "coordinates": [ -69.5631097, -21.8655326 ] } },
{ "type": "Feature", "properties": { "Region": "Antofagasta", "Provincia": null, "Comuna": null, "Nombre": "Mina El Abra" }, "geometry": { "type": "Point", "coordinates": [ -68.8320739, -21.9217804 ] } },
{ "type": "Feature", "properties": { "Region": "Antofagasta", "Provincia": null, "Comuna": null, "Nombre": "Polapi" }, "geometry": { "type": "Point", "coordinates": [ -68.4277364, -21.7668518 ] } },
{ "type": "Feature", "properties": { "Region": "Antofagasta", "Provincia": null, "Comuna": null, "Nombre": "Estaci�n San Pedro" }, "geometry": { "type": "Point", "coordinates": [ -68.5431651, -21.9422096 ] } },
{ "type": "Feature", "properties": { "Region": "Antofagasta", "Provincia": null, "Comuna": null, "Nombre": "Pukara de Lasana" }, "geometry": { "type": "Point", "coordinates": [ -68.6316347, -22.2693039 ] } },
{ "type": "Feature", "properties": { "Region": "Antofagasta", "Provincia": null, "Comuna": null, "Nombre": "El Tatio Geyser Field" }, "geometry": { "type": "Point", "coordinates": [ -68.0173455, -22.3399597 ] } },
{ "type": "Feature", "properties": { "Region": "Antofagasta", "Provincia": null, "Comuna": null, "Nombre": "Caleta Huach�n" }, "geometry": { "type": "Point", "coordinates": [ -70.0882789, -21.5526587 ] } },
{ "type": "Feature", "properties": { "Region": "Antofagasta", "Provincia": null, "Comuna": null, "Nombre": "Caleta Urco" }, "geometry": { "type": "Point", "coordinates": [ -70.1547352, -21.7603378 ] } },
{ "type": "Feature", "properties": { "Region": "Antofagasta", "Provincia": null, "Comuna": null, "Nombre": "Playa Quebrada Honda" }, "geometry": { "type": "Point", "coordinates": [ -70.1482647, -21.6994787 ] } },
{ "type": "Feature", "properties": { "Region": "Antofagasta", "Provincia": null, "Comuna": null, "Nombre": "Caleta Punta Arenas" }, "geometry": { "type": "Point", "coordinates": [ -70.140488, -21.6354477 ] } },
{ "type": "Feature", "properties": { "Region": "Antofagasta", "Provincia": null, "Comuna": null, "Nombre": "Avaroa" }, "geometry": { "type": "Point", "coordinates": [ -68.2118611, -21.2048728 ] } },
{ "type": "Feature", "properties": { "Region": "Antofagasta", "Provincia": null, "Comuna": null, "Nombre": "Avanzada de Quillagua" }, "geometry": { "type": "Point", "coordinates": [ -69.5506588, -21.627987 ] } },
{ "type": "Feature", "properties": { "Region": "Antofagasta", "Provincia": null, "Comuna": null, "Nombre": "Calachus" }, "geometry": { "type": "Point", "coordinates": [ -68.6621508, -21.6835347 ] } },
{ "type": "Feature", "properties": { "Region": "Antofagasta", "Provincia": null, "Comuna": null, "Nombre": "El Monte" }, "geometry": { "type": "Point", "coordinates": [ -69.5369019, -21.6498871 ] } },
{ "type": "Feature", "properties": { "Region": "Antofagasta", "Provincia": null, "Comuna": null, "Nombre": "La Parte" }, "geometry": { "type": "Point", "coordinates": [ -69.5283064, -21.6818426 ] } },
{ "type": "Feature", "properties": { "Region": "Antofagasta", "Provincia": null, "Comuna": null, "Nombre": "Oficina Iberia" }, "geometry": { "type": "Point", "coordinates": [ -69.5934629, -21.942719 ] } },
{ "type": "Feature", "properties": { "Region": "Antofagasta", "Provincia": null, "Comuna": null, "Nombre": "Pinchal" }, "geometry": { "type": "Point", "coordinates": [ -68.8756406, -21.4532951 ] } },
{ "type": "Feature", "properties": { "Region": "Antofagasta", "Provincia": null, "Comuna": null, "Nombre": "Santa Teresa" }, "geometry": { "type": "Point", "coordinates": [ -69.5866509, -21.9738575 ] } },
{ "type": "Feature", "properties": { "Region": "Antofagasta", "Provincia": null, "Comuna": null, "Nombre": "Tranque Sloman" }, "geometry": { "type": "Point", "coordinates": [ -69.5150196, -21.8527697 ] } },
{ "type": "Feature", "properties": { "Region": "Antofagasta", "Provincia": null, "Comuna": null, "Nombre": "Ascot�n" }, "geometry": { "type": "Point", "coordinates": [ -68.275831, -21.7253666 ] } },
{ "type": "Feature", "properties": { "Region": "Antofagasta", "Provincia": null, "Comuna": null, "Nombre": "Cebollar" }, "geometry": { "type": "Point", "coordinates": [ -68.3420099, -21.5339643 ] } },
{ "type": "Feature", "properties": { "Region": "Antofagasta", "Provincia": null, "Comuna": null, "Nombre": "Caleta Ind�gena" }, "geometry": { "type": "Point", "coordinates": [ -70.250677, -22.3494865 ] } },
{ "type": "Feature", "properties": { "Region": "Antofagasta", "Provincia": null, "Comuna": null, "Nombre": "Cerrillos" }, "geometry": { "type": "Point", "coordinates": [ -69.8672013, -22.2806844 ] } },
{ "type": "Feature", "properties": { "Region": "Antofagasta", "Provincia": null, "Comuna": null, "Nombre": "Conchuela" }, "geometry": { "type": "Point", "coordinates": [ -70.2472739, -22.3274797 ] } },
{ "type": "Feature", "properties": { "Region": "Antofagasta", "Provincia": null, "Comuna": null, "Nombre": "Estaci�n Central" }, "geometry": { "type": "Point", "coordinates": [ -69.9630174, -22.1521788 ] } },
{ "type": "Feature", "properties": { "Region": "Antofagasta", "Provincia": null, "Comuna": null, "Nombre": "Punta Atala" }, "geometry": { "type": "Point", "coordinates": [ -70.2419454, -22.2842263 ] } },
{ "type": "Feature", "properties": { "Region": "Antofagasta", "Provincia": null, "Comuna": null, "Nombre": "Punta Blanca" }, "geometry": { "type": "Point", "coordinates": [ -70.2272084, -22.171786 ] } },
{ "type": "Feature", "properties": { "Region": "Antofagasta", "Provincia": null, "Comuna": null, "Nombre": "San Mart�n" }, "geometry": { "type": "Point", "coordinates": [ -68.3566118, -21.406596 ] } },
{ "type": "Feature", "properties": { "Region": "Antofagasta", "Provincia": null, "Comuna": null, "Nombre": "Union Candelaria" }, "geometry": { "type": "Point", "coordinates": [ -69.5982647, -22.1812839 ] } },
{ "type": "Feature", "properties": { "Region": "Antofagasta", "Provincia": null, "Comuna": null, "Nombre": "Agua Larga" }, "geometry": { "type": "Point", "coordinates": [ -68.3299045, -22.0076699 ] } },
{ "type": "Feature", "properties": { "Region": "Antofagasta", "Provincia": null, "Comuna": null, "Nombre": "Ba�os de Turi" }, "geometry": { "type": "Point", "coordinates": [ -68.2831725, -22.2327156 ] } },
{ "type": "Feature", "properties": { "Region": "Antofagasta", "Provincia": null, "Comuna": null, "Nombre": "Chacana" }, "geometry": { "type": "Point", "coordinates": [ -68.6381024, -22.2923857 ] } },
{ "type": "Feature", "properties": { "Region": "Antofagasta", "Provincia": null, "Comuna": null, "Nombre": "Chulqui" }, "geometry": { "type": "Point", "coordinates": [ -68.1828312, -22.2661992 ] } },
{ "type": "Feature", "properties": { "Region": "Antofagasta", "Provincia": null, "Comuna": null, "Nombre": "Divisoco" }, "geometry": { "type": "Point", "coordinates": [ -68.4372864, -22.2523032 ] } },
{ "type": "Feature", "properties": { "Region": "Antofagasta", "Provincia": null, "Comuna": null, "Nombre": "El Abra Chica" }, "geometry": { "type": "Point", "coordinates": [ -68.3080225, -22.0210135 ] } },
{ "type": "Feature", "properties": { "Region": "Antofagasta", "Provincia": null, "Comuna": null, "Nombre": "El M�dano" }, "geometry": { "type": "Point", "coordinates": [ -68.2984961, -22.0645805 ] } },
{ "type": "Feature", "properties": { "Region": "Antofagasta", "Provincia": null, "Comuna": null, "Nombre": "El Potrero" }, "geometry": { "type": "Point", "coordinates": [ -68.0958771, -22.255702 ] } },
{ "type": "Feature", "properties": { "Region": "Antofagasta", "Provincia": null, "Comuna": null, "Nombre": "El Sifon" }, "geometry": { "type": "Point", "coordinates": [ -68.3474816, -22.2917348 ] } },
{ "type": "Feature", "properties": { "Region": "Antofagasta", "Provincia": null, "Comuna": null, "Nombre": "Las Puntas" }, "geometry": { "type": "Point", "coordinates": [ -68.2045589, -22.3508793 ] } },
{ "type": "Feature", "properties": { "Region": "Antofagasta", "Provincia": null, "Comuna": null, "Nombre": "Lasana" }, "geometry": { "type": "Point", "coordinates": [ -68.6203876, -22.2484077 ] } },
{ "type": "Feature", "properties": { "Region": "Antofagasta", "Provincia": null, "Comuna": null, "Nombre": "Vega de Paniri" }, "geometry": { "type": "Point", "coordinates": [ -68.2708549, -22.1512264 ] } },
{ "type": "Feature", "properties": { "Region": "Antofagasta", "Provincia": null, "Comuna": null, "Nombre": "Vegas de Turi" }, "geometry": { "type": "Point", "coordinates": [ -68.2872496, -22.2408851 ] } },
{ "type": "Feature", "properties": { "Region": "Antofagasta", "Provincia": null, "Comuna": null, "Nombre": "Caleta La Cuchara" }, "geometry": { "type": "Point", "coordinates": [ -70.1783497, -21.9090057 ] } },
{ "type": "Feature", "properties": { "Region": "Antofagasta", "Provincia": null, "Comuna": null, "Nombre": "Caleta Paquica" }, "geometry": { "type": "Point", "coordinates": [ -70.1725242, -21.8977113 ] } },
{ "type": "Feature", "properties": { "Region": "Antofagasta", "Provincia": null, "Comuna": null, "Nombre": "Piedra de Los Guatones" }, "geometry": { "type": "Point", "coordinates": [ -70.2147825, -22.1253666 ] } },
{ "type": "Feature", "properties": { "Region": "Antofagasta", "Provincia": null, "Comuna": null, "Nombre": "Quebrada Honda Sur" }, "geometry": { "type": "Point", "coordinates": [ -70.1436164, -21.7194937 ] } },
{ "type": "Feature", "properties": { "Region": "Antofagasta", "Provincia": null, "Comuna": null, "Nombre": "Pajancha" }, "geometry": { "type": "Point", "coordinates": [ -68.3525641, -21.0091972 ] } },
{ "type": "Feature", "properties": { "Region": "Antofagasta", "Provincia": null, "Comuna": null, "Nombre": "Sexicha" }, "geometry": { "type": "Point", "coordinates": [ -68.3657758, -20.9912464 ] } },
{ "type": "Feature", "properties": { "Region": "Antofagasta", "Provincia": null, "Comuna": null, "Nombre": "Oficina Santa Ana" }, "geometry": { "type": "Point", "coordinates": [ -69.5875291, -22.1231124 ] } },
{ "type": "Feature", "properties": { "Region": "Antofagasta", "Provincia": null, "Comuna": null, "Nombre": "Campamento Azufrera Polan" }, "geometry": { "type": "Point", "coordinates": [ -68.5176457, -21.241911 ] } },
{ "type": "Feature", "properties": { "Region": "Antofagasta", "Provincia": null, "Comuna": null, "Nombre": "Chitigua" }, "geometry": { "type": "Point", "coordinates": [ -68.8867396, -21.6209929 ] } },
{ "type": "Feature", "properties": { "Region": "Antofagasta", "Provincia": null, "Comuna": null, "Nombre": "Churqui" }, "geometry": { "type": "Point", "coordinates": [ -68.5969475, -21.9197402 ] } },
{ "type": "Feature", "properties": { "Region": "Antofagasta", "Provincia": null, "Comuna": null, "Nombre": "Santa Isabel" }, "geometry": { "type": "Point", "coordinates": [ -69.601094, -22.0758387 ] } },
{ "type": "Feature", "properties": { "Region": "Antofagasta", "Provincia": null, "Comuna": null, "Nombre": "Punta Ampa" }, "geometry": { "type": "Point", "coordinates": [ -70.2540493, -22.354799 ] } },
{ "type": "Feature", "properties": { "Region": "Antofagasta", "Provincia": null, "Comuna": null, "Nombre": "Caleta El R�o" }, "geometry": { "type": "Point", "coordinates": [ -70.2485615, -22.3462951 ] } },
{ "type": "Feature", "properties": { "Region": "Antofagasta", "Provincia": null, "Comuna": null, "Nombre": "Piedra del Elefante" }, "geometry": { "type": "Point", "coordinates": [ -70.2356172, -22.2568889 ] } },
{ "type": "Feature", "properties": { "Region": "Antofagasta", "Provincia": null, "Comuna": null, "Nombre": "Piedras Negras" }, "geometry": { "type": "Point", "coordinates": [ -70.1496497, -21.665794 ] } },
{ "type": "Feature", "properties": { "Region": "Antofagasta", "Provincia": null, "Comuna": null, "Nombre": "Huaitiquina" }, "geometry": { "type": "Point", "coordinates": [ -67.233333, -23.733333 ] } },
{ "type": "Feature", "properties": { "Region": "Antofagasta", "Provincia": null, "Comuna": null, "Nombre": "Zorras" }, "geometry": { "type": "Point", "coordinates": [ -68.7, -24.483333 ] } },
{ "type": "Feature", "properties": { "Region": "Antofagasta", "Provincia": null, "Comuna": null, "Nombre": "Oficina Americana" }, "geometry": { "type": "Point", "coordinates": [ -69.8213555, -24.0162054 ] } },
{ "type": "Feature", "properties": { "Region": "Antofagasta", "Provincia": null, "Comuna": null, "Nombre": "Pampa Fidelia" }, "geometry": { "type": "Point", "coordinates": [ -69.666667, -24.95 ] } },
{ "type": "Feature", "properties": { "Region": "Antofagasta", "Provincia": null, "Comuna": null, "Nombre": "Francke" }, "geometry": { "type": "Point", "coordinates": [ -69.85, -25.833333 ] } },
{ "type": "Feature", "properties": { "Region": "Antofagasta", "Provincia": null, "Comuna": null, "Nombre": "Oficina Oriente" }, "geometry": { "type": "Point", "coordinates": [ -69.783333, -24.066667 ] } },
{ "type": "Feature", "properties": { "Region": "Antofagasta", "Provincia": null, "Comuna": null, "Nombre": "Oficina Alemania" }, "geometry": { "type": "Point", "coordinates": [ -69.9089287, -25.1580249 ] } },
{ "type": "Feature", "properties": { "Region": "Antofagasta", "Provincia": null, "Comuna": null, "Nombre": "Isla Grande" }, "geometry": { "type": "Point", "coordinates": [ -68.683333, -22.4 ] } },
{ "type": "Feature", "properties": { "Region": "Antofagasta", "Provincia": null, "Comuna": null, "Nombre": "Posada de los Hidalgos" }, "geometry": { "type": "Point", "coordinates": [ -70.55, -25.766667 ] } },
{ "type": "Feature", "properties": { "Region": "Antofagasta", "Provincia": null, "Comuna": null, "Nombre": "Guat�n" }, "geometry": { "type": "Point", "coordinates": [ -68.0719194, -22.760514 ] } },
{ "type": "Feature", "properties": { "Region": "Antofagasta", "Provincia": null, "Comuna": null, "Nombre": "Tambillo" }, "geometry": { "type": "Point", "coordinates": [ -68.0815652, -23.1188963 ] } },
{ "type": "Feature", "properties": { "Region": "Antofagasta", "Provincia": null, "Comuna": null, "Nombre": "R�o Grande" }, "geometry": { "type": "Point", "coordinates": [ -68.1668223, -22.6516782 ] } },
{ "type": "Feature", "properties": { "Region": "Antofagasta", "Provincia": null, "Comuna": null, "Nombre": "Oficina Pedro de Valdivia" }, "geometry": { "type": "Point", "coordinates": [ -69.669539, -22.5960675 ] } },
{ "type": "Feature", "properties": { "Region": "Antofagasta", "Provincia": null, "Comuna": null, "Nombre": "Jos� Francisco Vergara" }, "geometry": { "type": "Point", "coordinates": [ -69.6216151, -22.4598813 ] } },
{ "type": "Feature", "properties": { "Region": "Antofagasta", "Provincia": null, "Comuna": null, "Nombre": "Algorta" }, "geometry": { "type": "Point", "coordinates": [ -69.8190901, -22.8735104 ] } },
{ "type": "Feature", "properties": { "Region": "Antofagasta", "Provincia": null, "Comuna": null, "Nombre": "Peine" }, "geometry": { "type": "Point", "coordinates": [ -68.0617081, -23.683615 ] } },
{ "type": "Feature", "properties": { "Region": "Antofagasta", "Provincia": null, "Comuna": null, "Nombre": "Porf�a" }, "geometry": { "type": "Point", "coordinates": [ -69.616667, -25.233333 ] } },
{ "type": "Feature", "properties": { "Region": "Antofagasta", "Provincia": null, "Comuna": null, "Nombre": "Mejillones" }, "geometry": { "type": "Point", "coordinates": [ -70.4483076, -23.1002342 ] } },
{ "type": "Feature", "properties": { "Region": "Antofagasta", "Provincia": null, "Comuna": null, "Nombre": "Cucuter" }, "geometry": { "type": "Point", "coordinates": [ -68.1796402, -22.9721756 ] } },
{ "type": "Feature", "properties": { "Region": "Antofagasta", "Provincia": null, "Comuna": null, "Nombre": "Placilla de Esmeralda" }, "geometry": { "type": "Point", "coordinates": [ -70.566667, -25.9 ] } },
{ "type": "Feature", "properties": { "Region": "Antofagasta", "Provincia": null, "Comuna": null, "Nombre": "Pocor" }, "geometry": { "type": "Point", "coordinates": [ -68.0124283, -23.2315403 ] } },
{ "type": "Feature", "properties": { "Region": "Antofagasta", "Provincia": null, "Comuna": null, "Nombre": "Baquedano" }, "geometry": { "type": "Point", "coordinates": [ -69.8434733, -23.3338059 ] } },
{ "type": "Feature", "properties": { "Region": "Antofagasta", "Provincia": null, "Comuna": null, "Nombre": "Blanca Rosa" }, "geometry": { "type": "Point", "coordinates": [ -69.8404312, -24.0592015 ] } },
{ "type": "Feature", "properties": { "Region": "Antofagasta", "Provincia": null, "Comuna": null, "Nombre": "Mar�a" }, "geometry": { "type": "Point", "coordinates": [ -69.4511029, -23.0370888 ] } },
{ "type": "Feature", "properties": { "Region": "Antofagasta", "Provincia": null, "Comuna": null, "Nombre": "Catarpe" }, "geometry": { "type": "Point", "coordinates": [ -68.2074609, -22.8482258 ] } },
{ "type": "Feature", "properties": { "Region": "Antofagasta", "Provincia": null, "Comuna": null, "Nombre": "R�o Fr�o" }, "geometry": { "type": "Point", "coordinates": [ -69.083333, -25.066667 ] } },
{ "type": "Feature", "properties": { "Region": "Antofagasta", "Provincia": null, "Comuna": null, "Nombre": "Oficina Rosario" }, "geometry": { "type": "Point", "coordinates": [ -69.783333, -25.233333 ] } },
{ "type": "Feature", "properties": { "Region": "Antofagasta", "Provincia": null, "Comuna": null, "Nombre": "Camar" }, "geometry": { "type": "Point", "coordinates": [ -67.9611583, -23.4072492 ] } },
{ "type": "Feature", "properties": { "Region": "Antofagasta", "Provincia": null, "Comuna": null, "Nombre": "Pampa Elena" }, "geometry": { "type": "Point", "coordinates": [ -69.816667, -24.866667 ] } },
{ "type": "Feature", "properties": { "Region": "Antofagasta", "Provincia": null, "Comuna": null, "Nombre": "Bomba Vergara" }, "geometry": { "type": "Point", "coordinates": [ -69.4498124, -22.4501851 ] } },
{ "type": "Feature", "properties": { "Region": "Antofagasta", "Provincia": null, "Comuna": null, "Nombre": "El Negrillar" }, "geometry": { "type": "Point", "coordinates": [ -68.233333, -24.183333 ] } },
{ "type": "Feature", "properties": { "Region": "Antofagasta", "Provincia": null, "Comuna": null, "Nombre": "San Crist�bal" }, "geometry": { "type": "Point", "coordinates": [ -69.55, -23.55 ] } },
{ "type": "Feature", "properties": { "Region": "Antofagasta", "Provincia": null, "Comuna": null, "Nombre": "Tilopozo" }, "geometry": { "type": "Point", "coordinates": [ -68.25, -23.783333 ] } },
{ "type": "Feature", "properties": { "Region": "Antofagasta", "Provincia": null, "Comuna": null, "Nombre": "Zapar" }, "geometry": { "type": "Point", "coordinates": [ -68.0167501, -23.1275022 ] } },
{ "type": "Feature", "properties": { "Region": "Antofagasta", "Provincia": null, "Comuna": null, "Nombre": "Campamento El Laco" }, "geometry": { "type": "Point", "coordinates": [ -67.491267, -23.8611143 ] } },
{ "type": "Feature", "properties": { "Region": "Antofagasta", "Provincia": null, "Comuna": null, "Nombre": "Solor" }, "geometry": { "type": "Point", "coordinates": [ -68.185653, -22.9461854 ] } },
{ "type": "Feature", "properties": { "Region": "Antofagasta", "Provincia": null, "Comuna": null, "Nombre": "El Hueso" }, "geometry": { "type": "Point", "coordinates": [ -70.4598973, -25.3873528 ] } },
{ "type": "Feature", "properties": { "Region": "Antofagasta", "Provincia": null, "Comuna": null, "Nombre": "Campamento Esmeralda" }, "geometry": { "type": "Point", "coordinates": [ -69.8242952, -22.9352153 ] } },
{ "type": "Feature", "properties": { "Region": "Antofagasta", "Provincia": null, "Comuna": null, "Nombre": "Pampa Yolanda" }, "geometry": { "type": "Point", "coordinates": [ -70.15, -24.966667 ] } },
{ "type": "Feature", "properties": { "Region": "Antofagasta", "Provincia": null, "Comuna": null, "Nombre": "Paposo" }, "geometry": { "type": "Point", "coordinates": [ -70.4653417, -25.0094441 ] } },
{ "type": "Feature", "properties": { "Region": "Antofagasta", "Provincia": null, "Comuna": null, "Nombre": "Cascabeles" }, "geometry": { "type": "Point", "coordinates": [ -70.45, -25.283333 ] } },
{ "type": "Feature", "properties": { "Region": "Antofagasta", "Provincia": null, "Comuna": null, "Nombre": "San Pedro de Atacama" }, "geometry": { "type": "Point", "coordinates": [ -68.2001376, -22.910832 ] } },
{ "type": "Feature", "properties": { "Region": "Antofagasta", "Provincia": null, "Comuna": null, "Nombre": "Quebrada Buena" }, "geometry": { "type": "Point", "coordinates": [ -70.4672571, -25.0539072 ] } },
{ "type": "Feature", "properties": { "Region": "Antofagasta", "Provincia": null, "Comuna": null, "Nombre": "Oficina Perseverancia" }, "geometry": { "type": "Point", "coordinates": [ -69.4, -23.05 ] } },
{ "type": "Feature", "properties": { "Region": "Antofagasta", "Provincia": null, "Comuna": null, "Nombre": "Compa��a" }, "geometry": { "type": "Point", "coordinates": [ -67.9082048, -23.5647824 ] } },
{ "type": "Feature", "properties": { "Region": "Antofagasta", "Provincia": null, "Comuna": null, "Nombre": "Sierra Overa" }, "geometry": { "type": "Point", "coordinates": [ -70.083333, -25.766667 ] } },
{ "type": "Feature", "properties": { "Region": "Antofagasta", "Provincia": null, "Comuna": null, "Nombre": "Calama" }, "geometry": { "type": "Point", "coordinates": [ -68.9272181, -22.4623917 ] } },
{ "type": "Feature", "properties": { "Region": "Antofagasta", "Provincia": null, "Comuna": null, "Nombre": "Aguada de Cachinal" }, "geometry": { "type": "Point", "coordinates": [ -69.5541432, -25.1437304 ] } },
{ "type": "Feature", "properties": { "Region": "Antofagasta", "Provincia": null, "Comuna": null, "Nombre": "Flor del Desierto" }, "geometry": { "type": "Point", "coordinates": [ -69.3616136, -23.2820501 ] } },
{ "type": "Feature", "properties": { "Region": "Antofagasta", "Provincia": null, "Comuna": null, "Nombre": "Soncor" }, "geometry": { "type": "Point", "coordinates": [ -67.9956296, -23.3390147 ] } },
{ "type": "Feature", "properties": { "Region": "Antofagasta", "Provincia": null, "Comuna": null, "Nombre": "Ramadas" }, "geometry": { "type": "Point", "coordinates": [ -69.1, -22.5 ] } },
{ "type": "Feature", "properties": { "Region": "Antofagasta", "Provincia": null, "Comuna": null, "Nombre": "Pampa Uni�n" }, "geometry": { "type": "Point", "coordinates": [ -69.4908968, -23.079543 ] } },
{ "type": "Feature", "properties": { "Region": "Antofagasta", "Provincia": null, "Comuna": null, "Nombre": "Caleta Cifuncho" }, "geometry": { "type": "Point", "coordinates": [ -70.6464137, -25.6540123 ] } },
{ "type": "Feature", "properties": { "Region": "Antofagasta", "Provincia": null, "Comuna": null, "Nombre": "Dupont" }, "geometry": { "type": "Point", "coordinates": [ -68.9490588, -22.5184166 ] } },
{ "type": "Feature", "properties": { "Region": "Antofagasta", "Provincia": null, "Comuna": null, "Nombre": "Catalina" }, "geometry": { "type": "Point", "coordinates": [ -69.718927, -25.2333828 ] } },
{ "type": "Feature", "properties": { "Region": "Antofagasta", "Provincia": null, "Comuna": null, "Nombre": "Pe�aliri" }, "geometry": { "type": "Point", "coordinates": [ -68.1229924, -22.6245777 ] } },
{ "type": "Feature", "properties": { "Region": "Antofagasta", "Provincia": null, "Comuna": null, "Nombre": "San Francisco" }, "geometry": { "type": "Point", "coordinates": [ -67.8958311, -23.5699217 ] } },
{ "type": "Feature", "properties": { "Region": "Antofagasta", "Provincia": null, "Comuna": null, "Nombre": "Antofagasta" }, "geometry": { "type": "Point", "coordinates": [ -70.3980033, -23.6463741 ] } },
{ "type": "Feature", "properties": { "Region": "Antofagasta", "Provincia": null, "Comuna": null, "Nombre": "Oficina Salinitas" }, "geometry": { "type": "Point", "coordinates": [ -69.983333, -25.05 ] } },
{ "type": "Feature", "properties": { "Region": "Antofagasta", "Provincia": null, "Comuna": null, "Nombre": "Coyo" }, "geometry": { "type": "Point", "coordinates": [ -68.2343413, -22.9528045 ] } },
{ "type": "Feature", "properties": { "Region": "Antofagasta", "Provincia": null, "Comuna": null, "Nombre": "Nacara" }, "geometry": { "type": "Point", "coordinates": [ -69.233333, -22.516667 ] } },
{ "type": "Feature", "properties": { "Region": "Antofagasta", "Provincia": null, "Comuna": null, "Nombre": "Estaci�n Yungay" }, "geometry": { "type": "Point", "coordinates": [ -69.9198235, -24.0794594 ] } },
{ "type": "Feature", "properties": { "Region": "Antofagasta", "Provincia": null, "Comuna": null, "Nombre": "Lagunita" }, "geometry": { "type": "Point", "coordinates": [ -68.1010401, -22.5529881 ] } },
{ "type": "Feature", "properties": { "Region": "Antofagasta", "Provincia": null, "Comuna": null, "Nombre": "Cobija" }, "geometry": { "type": "Point", "coordinates": [ -70.2650577, -22.5513446 ] } },
{ "type": "Feature", "properties": { "Region": "Antofagasta", "Provincia": null, "Comuna": null, "Nombre": "Talabre" }, "geometry": { "type": "Point", "coordinates": [ -67.8901676, -23.3156818 ] } },
{ "type": "Feature", "properties": { "Region": "Antofagasta", "Provincia": null, "Comuna": null, "Nombre": "San Bartolo" }, "geometry": { "type": "Point", "coordinates": [ -68.2165027, -22.7294631 ] } },
{ "type": "Feature", "properties": { "Region": "Antofagasta", "Provincia": null, "Comuna": null, "Nombre": "Refresco" }, "geometry": { "type": "Point", "coordinates": [ -69.766667, -23.416667 ] } },
{ "type": "Feature", "properties": { "Region": "Antofagasta", "Provincia": null, "Comuna": null, "Nombre": "Chaxas" }, "geometry": { "type": "Point", "coordinates": [ -67.983333, -22.783333 ] } },
{ "type": "Feature", "properties": { "Region": "Antofagasta", "Provincia": null, "Comuna": null, "Nombre": "Michilla" }, "geometry": { "type": "Point", "coordinates": [ -70.2816434, -22.7245635 ] } },
{ "type": "Feature", "properties": { "Region": "Antofagasta", "Provincia": null, "Comuna": null, "Nombre": "Turicapur" }, "geometry": { "type": "Point", "coordinates": [ -68.2335338, -22.6172147 ] } },
{ "type": "Feature", "properties": { "Region": "Antofagasta", "Provincia": null, "Comuna": null, "Nombre": "Guacate" }, "geometry": { "type": "Point", "coordinates": [ -69.3, -22.516667 ] } },
{ "type": "Feature", "properties": { "Region": "Antofagasta", "Provincia": null, "Comuna": null, "Nombre": "Machuca" }, "geometry": { "type": "Point", "coordinates": [ -68.0642025, -22.5979465 ] } },
{ "type": "Feature", "properties": { "Region": "Antofagasta", "Provincia": null, "Comuna": null, "Nombre": "Pampa Nacha" }, "geometry": { "type": "Point", "coordinates": [ -69.866667, -24.933333 ] } },
{ "type": "Feature", "properties": { "Region": "Antofagasta", "Provincia": null, "Comuna": null, "Nombre": "Aguas Blancas" }, "geometry": { "type": "Point", "coordinates": [ -69.8797833, -24.1349277 ] } },
{ "type": "Feature", "properties": { "Region": "Antofagasta", "Provincia": null, "Comuna": null, "Nombre": "Mar�a Elena" }, "geometry": { "type": "Point", "coordinates": [ -69.6618181, -22.345161 ] } },
{ "type": "Feature", "properties": { "Region": "Antofagasta", "Provincia": null, "Comuna": null, "Nombre": "Altamira" }, "geometry": { "type": "Point", "coordinates": [ -69.8511415, -25.8061688 ] } },
{ "type": "Feature", "properties": { "Region": "Antofagasta", "Provincia": null, "Comuna": null, "Nombre": "Balmaceda" }, "geometry": { "type": "Point", "coordinates": [ -69.733333, -25.066667 ] } },
{ "type": "Feature", "properties": { "Region": "Antofagasta", "Provincia": null, "Comuna": null, "Nombre": "San Juan" }, "geometry": { "type": "Point", "coordinates": [ -69.033333, -23.083333 ] } },
{ "type": "Feature", "properties": { "Region": "Antofagasta", "Provincia": null, "Comuna": null, "Nombre": "Placilla de Caracoles" }, "geometry": { "type": "Point", "coordinates": [ -69.0069238, -23.0369531 ] } },
{ "type": "Feature", "properties": { "Region": "Antofagasta", "Provincia": null, "Comuna": null, "Nombre": "Lic�n" }, "geometry": { "type": "Point", "coordinates": [ -68.2328667, -22.6381506 ] } },
{ "type": "Feature", "properties": { "Region": "Antofagasta", "Provincia": null, "Comuna": null, "Nombre": "Taltal" }, "geometry": { "type": "Point", "coordinates": [ -70.4858056, -25.4079569 ] } },
{ "type": "Feature", "properties": { "Region": "Antofagasta", "Provincia": null, "Comuna": null, "Nombre": "La Portada" }, "geometry": { "type": "Point", "coordinates": [ -70.4244233, -23.498753 ] } },
{ "type": "Feature", "properties": { "Region": "Antofagasta", "Provincia": null, "Comuna": null, "Nombre": "Pampa Anita" }, "geometry": { "type": "Point", "coordinates": [ -69.733333, -24.9 ] } },
{ "type": "Feature", "properties": { "Region": "Antofagasta", "Provincia": null, "Comuna": null, "Nombre": "Socaire" }, "geometry": { "type": "Point", "coordinates": [ -67.8902747, -23.5902062 ] } },
{ "type": "Feature", "properties": { "Region": "Antofagasta", "Provincia": null, "Comuna": null, "Nombre": "Sierra Gorda" }, "geometry": { "type": "Point", "coordinates": [ -69.3200101, -22.8916766 ] } },
{ "type": "Feature", "properties": { "Region": "Antofagasta", "Provincia": null, "Comuna": null, "Nombre": "Los Dones" }, "geometry": { "type": "Point", "coordinates": [ -69.7733574, -22.706768 ] } },
{ "type": "Feature", "properties": { "Region": "Antofagasta", "Provincia": null, "Comuna": null, "Nombre": "Carmen Alto" }, "geometry": { "type": "Point", "coordinates": [ -69.6349739, -23.1844585 ] } },
{ "type": "Feature", "properties": { "Region": "Antofagasta", "Provincia": null, "Comuna": null, "Nombre": "Blanco Encalada" }, "geometry": { "type": "Point", "coordinates": [ -70.5495855, -24.3739936 ] } },
{ "type": "Feature", "properties": { "Region": "Antofagasta", "Provincia": null, "Comuna": null, "Nombre": "Mina Spence (BHP Billiton)" }, "geometry": { "type": "Point", "coordinates": [ -69.2614837, -22.7961054 ] } },
{ "type": "Feature", "properties": { "Region": "Antofagasta", "Provincia": null, "Comuna": null, "Nombre": "ALMA Operation Support Facility" }, "geometry": { "type": "Point", "coordinates": [ -67.9807008, -23.0725867 ] } },
{ "type": "Feature", "properties": { "Region": "Antofagasta", "Provincia": null, "Comuna": null, "Nombre": "Mina Explotadora" }, "geometry": { "type": "Point", "coordinates": [ -69.3244834, -25.8261001 ] } },
{ "type": "Feature", "properties": { "Region": "Antofagasta", "Provincia": null, "Comuna": null, "Nombre": "La P�lvora" }, "geometry": { "type": "Point", "coordinates": [ -69.5430083, -25.7788088 ] } },
{ "type": "Feature", "properties": { "Region": "Antofagasta", "Provincia": null, "Comuna": null, "Nombre": "Oficina Miraflores" }, "geometry": { "type": "Point", "coordinates": [ -69.7999167, -25.4677641 ] } },
{ "type": "Feature", "properties": { "Region": "Antofagasta", "Provincia": null, "Comuna": null, "Nombre": "Mina Yaquie" }, "geometry": { "type": "Point", "coordinates": [ -70.3784096, -25.6372383 ] } },
{ "type": "Feature", "properties": { "Region": "Antofagasta", "Provincia": null, "Comuna": null, "Nombre": "Mina La Uni�n" }, "geometry": { "type": "Point", "coordinates": [ -70.3657384, -25.5924355 ] } },
{ "type": "Feature", "properties": { "Region": "Antofagasta", "Provincia": null, "Comuna": null, "Nombre": "Canchas" }, "geometry": { "type": "Point", "coordinates": [ -70.1745505, -25.4239896 ] } },
{ "type": "Feature", "properties": { "Region": "Antofagasta", "Provincia": null, "Comuna": null, "Nombre": "Guanillos" }, "geometry": { "type": "Point", "coordinates": [ -70.6899198, -25.8889511 ] } },
{ "type": "Feature", "properties": { "Region": "Antofagasta", "Provincia": null, "Comuna": null, "Nombre": "Oficina Catalina del Sur" }, "geometry": { "type": "Point", "coordinates": [ -69.781961, -25.493891 ] } },
{ "type": "Feature", "properties": { "Region": "Antofagasta", "Provincia": null, "Comuna": null, "Nombre": "Agua Verde" }, "geometry": { "type": "Point", "coordinates": [ -69.9647836, -25.3992577 ] } },
{ "type": "Feature", "properties": { "Region": "Antofagasta", "Provincia": null, "Comuna": null, "Nombre": "Caleta Buena" }, "geometry": { "type": "Point", "coordinates": [ -70.2556177, -22.4393948 ] } },
{ "type": "Feature", "properties": { "Region": "Antofagasta", "Provincia": null, "Comuna": null, "Nombre": "Minera San Andr�s" }, "geometry": { "type": "Point", "coordinates": [ -70.249446, -22.5297948 ] } },
{ "type": "Feature", "properties": { "Region": "Antofagasta", "Provincia": null, "Comuna": null, "Nombre": "Oficina Bonasort" }, "geometry": { "type": "Point", "coordinates": [ -69.8951798, -24.22611 ] } },
{ "type": "Feature", "properties": { "Region": "Antofagasta", "Provincia": null, "Comuna": null, "Nombre": "Oficina Renacimiento" }, "geometry": { "type": "Point", "coordinates": [ -69.802709, -24.2241698 ] } },
{ "type": "Feature", "properties": { "Region": "Antofagasta", "Provincia": null, "Comuna": null, "Nombre": "Oficina Mar�a Teresa" }, "geometry": { "type": "Point", "coordinates": [ -69.8541527, -24.2076365 ] } },
{ "type": "Feature", "properties": { "Region": "Antofagasta", "Provincia": null, "Comuna": null, "Nombre": "Oficina Castilla" }, "geometry": { "type": "Point", "coordinates": [ -69.8368149, -23.8989856 ] } },
{ "type": "Feature", "properties": { "Region": "Antofagasta", "Provincia": null, "Comuna": null, "Nombre": "Oficina Rosario" }, "geometry": { "type": "Point", "coordinates": [ -69.9722557, -24.310772 ] } },
{ "type": "Feature", "properties": { "Region": "Antofagasta", "Provincia": null, "Comuna": null, "Nombre": "Oficina Valpara�so" }, "geometry": { "type": "Point", "coordinates": [ -69.8421364, -24.242233 ] } },
{ "type": "Feature", "properties": { "Region": "Antofagasta", "Provincia": null, "Comuna": null, "Nombre": "Oficina Chile" }, "geometry": { "type": "Point", "coordinates": [ -69.8587876, -25.1680896 ] } },
{ "type": "Feature", "properties": { "Region": "Antofagasta", "Provincia": null, "Comuna": null, "Nombre": "OficinaAtacama" }, "geometry": { "type": "Point", "coordinates": [ -69.8450547, -25.1963627 ] } },
{ "type": "Feature", "properties": { "Region": "Antofagasta", "Provincia": null, "Comuna": null, "Nombre": "Oficina Caupolic�n" }, "geometry": { "type": "Point", "coordinates": [ -69.7199135, -25.2000905 ] } },
{ "type": "Feature", "properties": { "Region": "Antofagasta", "Provincia": null, "Comuna": null, "Nombre": "Oficina Esperanza" }, "geometry": { "type": "Point", "coordinates": [ -69.7001725, -25.3427493 ] } },
{ "type": "Feature", "properties": { "Region": "Antofagasta", "Provincia": null, "Comuna": null, "Nombre": "Oficina Flor de Chile" }, "geometry": { "type": "Point", "coordinates": [ -69.8205071, -25.3138896 ] } },
{ "type": "Feature", "properties": { "Region": "Antofagasta", "Provincia": null, "Comuna": null, "Nombre": "Oficina Lacalle" }, "geometry": { "type": "Point", "coordinates": [ -69.9049645, -24.4217953 ] } },
{ "type": "Feature", "properties": { "Region": "Antofagasta", "Provincia": null, "Comuna": null, "Nombre": "Oficina La Uni�n" }, "geometry": { "type": "Point", "coordinates": [ -69.8117523, -25.3325095 ] } },
{ "type": "Feature", "properties": { "Region": "Antofagasta", "Provincia": null, "Comuna": null, "Nombre": "Oficina Ballena" }, "geometry": { "type": "Point", "coordinates": [ -69.6740799, -25.2904554 ] } },
{ "type": "Feature", "properties": { "Region": "Antofagasta", "Provincia": null, "Comuna": null, "Nombre": "Mina Escondida" }, "geometry": { "type": "Point", "coordinates": [ -69.1037281, -24.2204855 ] } },
{ "type": "Feature", "properties": { "Region": "Antofagasta", "Provincia": null, "Comuna": null, "Nombre": "Mina Zaldivar" }, "geometry": { "type": "Point", "coordinates": [ -69.0737163, -24.2202673 ] } },
{ "type": "Feature", "properties": { "Region": "Antofagasta", "Provincia": null, "Comuna": null, "Nombre": "Ex Oficina Augusta Victoria" }, "geometry": { "type": "Point", "coordinates": [ -69.3653445, -24.1042085 ] } },
{ "type": "Feature", "properties": { "Region": "Antofagasta", "Provincia": null, "Comuna": null, "Nombre": "Parque del Loa" }, "geometry": { "type": "Point", "coordinates": [ -69.565985, -22.349819 ] } },
{ "type": "Feature", "properties": { "Region": "Antofagasta", "Provincia": null, "Comuna": null, "Nombre": "Juan L�pez" }, "geometry": { "type": "Point", "coordinates": [ -70.5337359, -23.5119592 ] } },
{ "type": "Feature", "properties": { "Region": "Antofagasta", "Provincia": null, "Comuna": null, "Nombre": "Rinconada de Mejillones" }, "geometry": { "type": "Point", "coordinates": [ -70.4793293, -23.0991226 ] } },
{ "type": "Feature", "properties": { "Region": "Antofagasta", "Provincia": null, "Comuna": null, "Nombre": "Pukar� de Quitor" }, "geometry": { "type": "Point", "coordinates": [ -68.2185664, -22.8883258 ] } },
{ "type": "Feature", "properties": { "Region": "Antofagasta", "Provincia": null, "Comuna": null, "Nombre": "Tulor" }, "geometry": { "type": "Point", "coordinates": [ -68.2395469, -22.9760007 ] } },
{ "type": "Feature", "properties": { "Region": "Antofagasta", "Provincia": null, "Comuna": null, "Nombre": "Centro Inc�sico Catarpe" }, "geometry": { "type": "Point", "coordinates": [ -68.2126857, -22.855201 ] } },
{ "type": "Feature", "properties": { "Region": "Antofagasta", "Provincia": null, "Comuna": null, "Nombre": "Valle de la Luna" }, "geometry": { "type": "Point", "coordinates": [ -68.3027903, -22.932339 ] } },
{ "type": "Feature", "properties": { "Region": "Antofagasta", "Provincia": null, "Comuna": null, "Nombre": "Chacaya" }, "geometry": { "type": "Point", "coordinates": [ -70.3088148, -22.9609256 ] } },
{ "type": "Feature", "properties": { "Region": "Antofagasta", "Provincia": null, "Comuna": null, "Nombre": "Hornitos" }, "geometry": { "type": "Point", "coordinates": [ -70.2902591, -22.9183375 ] } },
{ "type": "Feature", "properties": { "Region": "Antofagasta", "Provincia": null, "Comuna": null, "Nombre": "Quebrada de Jerez" }, "geometry": { "type": "Point", "coordinates": [ -67.9941571, -23.1895565 ] } },
{ "type": "Feature", "properties": { "Region": "Antofagasta", "Provincia": null, "Comuna": null, "Nombre": "Reserva Nacional Los Flamencos - Soncor" }, "geometry": { "type": "Point", "coordinates": [ -68.1762735, -23.2875086 ] } },
{ "type": "Feature", "properties": { "Region": "Antofagasta", "Provincia": null, "Comuna": null, "Nombre": "Turipite" }, "geometry": { "type": "Point", "coordinates": [ -68.0555437, -22.7145551 ] } },
{ "type": "Feature", "properties": { "Region": "Antofagasta", "Provincia": null, "Comuna": null, "Nombre": "Ruina de la Oficina Sargento Aldea" }, "geometry": { "type": "Point", "coordinates": [ -69.6833282, -23.2008379 ] } },
{ "type": "Feature", "properties": { "Region": "Antofagasta", "Provincia": null, "Comuna": null, "Nombre": "Ruinas de Oficina Riviera" }, "geometry": { "type": "Point", "coordinates": [ -69.6696489, -23.1941222 ] } },
{ "type": "Feature", "properties": { "Region": "Antofagasta", "Provincia": null, "Comuna": null, "Nombre": "Ruinas de Oficina Francisco Puelma" }, "geometry": { "type": "Point", "coordinates": [ -69.6607976, -23.1849604 ] } },
{ "type": "Feature", "properties": { "Region": "Antofagasta", "Provincia": null, "Comuna": null, "Nombre": "Paso Zapaleri" }, "geometry": { "type": "Point", "coordinates": [ -67.1444222, -22.849718 ] } },
{ "type": "Feature", "properties": { "Region": "Antofagasta", "Provincia": null, "Comuna": null, "Nombre": "Atacama Large Millimeter\/submillimeter Array" }, "geometry": { "type": "Point", "coordinates": [ -67.7530723, -23.0227714 ] } },
{ "type": "Feature", "properties": { "Region": "Antofagasta", "Provincia": null, "Comuna": null, "Nombre": "Cerritos Bayos" }, "geometry": { "type": "Point", "coordinates": [ -69.1504575, -22.6391592 ] } },
{ "type": "Feature", "properties": { "Region": "Antofagasta", "Provincia": null, "Comuna": null, "Nombre": "Chacance" }, "geometry": { "type": "Point", "coordinates": [ -69.5604541, -22.3965258 ] } },
{ "type": "Feature", "properties": { "Region": "Antofagasta", "Provincia": null, "Comuna": null, "Nombre": "Mantos de la Luna" }, "geometry": { "type": "Point", "coordinates": [ -70.2459155, -22.3903586 ] } },
{ "type": "Feature", "properties": { "Region": "Antofagasta", "Provincia": null, "Comuna": null, "Nombre": "Miraje" }, "geometry": { "type": "Point", "coordinates": [ -69.5680785, -22.5037688 ] } },
{ "type": "Feature", "properties": { "Region": "Antofagasta", "Provincia": null, "Comuna": null, "Nombre": "Algarrobo" }, "geometry": { "type": "Point", "coordinates": [ -68.1455593, -22.6466416 ] } },
{ "type": "Feature", "properties": { "Region": "Antofagasta", "Provincia": null, "Comuna": null, "Nombre": "Envidias" }, "geometry": { "type": "Point", "coordinates": [ -68.1014225, -22.6138363 ] } },
{ "type": "Feature", "properties": { "Region": "Antofagasta", "Provincia": null, "Comuna": null, "Nombre": "Lic�n Chico" }, "geometry": { "type": "Point", "coordinates": [ -68.1837909, -22.6581556 ] } },
{ "type": "Feature", "properties": { "Region": "Antofagasta", "Provincia": null, "Comuna": null, "Nombre": "Quetena" }, "geometry": { "type": "Point", "coordinates": [ -68.9731863, -22.4454046 ] } },
{ "type": "Feature", "properties": { "Region": "Antofagasta", "Provincia": null, "Comuna": null, "Nombre": "Rincon de Guaitiquina" }, "geometry": { "type": "Point", "coordinates": [ -68.1339998, -22.6487606 ] } },
{ "type": "Feature", "properties": { "Region": "Antofagasta", "Provincia": null, "Comuna": null, "Nombre": "San Juan" }, "geometry": { "type": "Point", "coordinates": [ -68.118484, -22.609426 ] } },
{ "type": "Feature", "properties": { "Region": "Antofagasta", "Provincia": null, "Comuna": null, "Nombre": "Santa Rose" }, "geometry": { "type": "Point", "coordinates": [ -68.2364603, -22.5438239 ] } },
{ "type": "Feature", "properties": { "Region": "Antofagasta", "Provincia": null, "Comuna": null, "Nombre": "Vega Yuto" }, "geometry": { "type": "Point", "coordinates": [ -68.0833258, -22.5745692 ] } },
{ "type": "Feature", "properties": { "Region": "Antofagasta", "Provincia": null, "Comuna": null, "Nombre": "Anita" }, "geometry": { "type": "Point", "coordinates": [ -69.5020156, -23.0586674 ] } },
{ "type": "Feature", "properties": { "Region": "Antofagasta", "Provincia": null, "Comuna": null, "Nombre": "Araucana" }, "geometry": { "type": "Point", "coordinates": [ -69.4490628, -23.0835816 ] } },
{ "type": "Feature", "properties": { "Region": "Antofagasta", "Provincia": null, "Comuna": null, "Nombre": "Arturo Pratt" }, "geometry": { "type": "Point", "coordinates": [ -69.5052662, -23.1003401 ] } },
{ "type": "Feature", "properties": { "Region": "Antofagasta", "Provincia": null, "Comuna": null, "Nombre": "Ausonia" }, "geometry": { "type": "Point", "coordinates": [ -69.5397358, -23.0712098 ] } },
{ "type": "Feature", "properties": { "Region": "Antofagasta", "Provincia": null, "Comuna": null, "Nombre": "Blanco Encalada" }, "geometry": { "type": "Point", "coordinates": [ -69.6148351, -23.2119319 ] } },
{ "type": "Feature", "properties": { "Region": "Antofagasta", "Provincia": null, "Comuna": null, "Nombre": "Candelaria" }, "geometry": { "type": "Point", "coordinates": [ -69.5218134, -23.0587673 ] } },
{ "type": "Feature", "properties": { "Region": "Antofagasta", "Provincia": null, "Comuna": null, "Nombre": "Carmela" }, "geometry": { "type": "Point", "coordinates": [ -69.5629996, -23.1075846 ] } },
{ "type": "Feature", "properties": { "Region": "Antofagasta", "Provincia": null, "Comuna": null, "Nombre": "Central" }, "geometry": { "type": "Point", "coordinates": [ -69.5404242, -23.1223917 ] } },
{ "type": "Feature", "properties": { "Region": "Antofagasta", "Provincia": null, "Comuna": null, "Nombre": "Chacabuco" }, "geometry": { "type": "Point", "coordinates": [ -69.6189141, -23.1439043 ] } },
{ "type": "Feature", "properties": { "Region": "Antofagasta", "Provincia": null, "Comuna": null, "Nombre": "Chela" }, "geometry": { "type": "Point", "coordinates": [ -69.3836617, -22.9704893 ] } },
{ "type": "Feature", "properties": { "Region": "Antofagasta", "Provincia": null, "Comuna": null, "Nombre": "Concepci�n" }, "geometry": { "type": "Point", "coordinates": [ -69.3903805, -22.9863691 ] } },
{ "type": "Feature", "properties": { "Region": "Antofagasta", "Provincia": null, "Comuna": null, "Nombre": "Filomena" }, "geometry": { "type": "Point", "coordinates": [ -69.4119492, -23.0062788 ] } },
{ "type": "Feature", "properties": { "Region": "Antofagasta", "Provincia": null, "Comuna": null, "Nombre": "Incahuasi" }, "geometry": { "type": "Point", "coordinates": [ -68.0143053, -22.5407809 ] } },
{ "type": "Feature", "properties": { "Region": "Antofagasta", "Provincia": null, "Comuna": null, "Nombre": "La Noria" }, "geometry": { "type": "Point", "coordinates": [ -69.3352894, -22.9114269 ] } },
{ "type": "Feature", "properties": { "Region": "Antofagasta", "Provincia": null, "Comuna": null, "Nombre": "Oficina Ersilla" }, "geometry": { "type": "Point", "coordinates": [ -69.8747213, -23.1262831 ] } },
{ "type": "Feature", "properties": { "Region": "Antofagasta", "Provincia": null, "Comuna": null, "Nombre": "Luisis" }, "geometry": { "type": "Point", "coordinates": [ -69.5199875, -23.0366514 ] } },
{ "type": "Feature", "properties": { "Region": "Antofagasta", "Provincia": null, "Comuna": null, "Nombre": "Michilla Bajo" }, "geometry": { "type": "Point", "coordinates": [ -70.2755379, -22.7121703 ] } },
{ "type": "Feature", "properties": { "Region": "Antofagasta", "Provincia": null, "Comuna": null, "Nombre": "Ossa" }, "geometry": { "type": "Point", "coordinates": [ -69.5813279, -23.1309893 ] } },
{ "type": "Feature", "properties": { "Region": "Antofagasta", "Provincia": null, "Comuna": null, "Nombre": "Pinto" }, "geometry": { "type": "Point", "coordinates": [ -69.5105819, -23.0894787 ] } },
{ "type": "Feature", "properties": { "Region": "Antofagasta", "Provincia": null, "Comuna": null, "Nombre": "Itata" }, "geometry": { "type": "Point", "coordinates": [ -70.3031976, -22.9311026 ] } },
{ "type": "Feature", "properties": { "Region": "Antofagasta", "Provincia": null, "Comuna": null, "Nombre": "Salinas" }, "geometry": { "type": "Point", "coordinates": [ -69.6090706, -23.1583001 ] } },
{ "type": "Feature", "properties": { "Region": "Antofagasta", "Provincia": null, "Comuna": null, "Nombre": "Ayaviri" }, "geometry": { "type": "Point", "coordinates": [ -68.1957006, -22.7667563 ] } },
{ "type": "Feature", "properties": { "Region": "Antofagasta", "Provincia": null, "Comuna": null, "Nombre": "Cuchaorache" }, "geometry": { "type": "Point", "coordinates": [ -68.1991207, -22.8334569 ] } },
{ "type": "Feature", "properties": { "Region": "Antofagasta", "Provincia": null, "Comuna": null, "Nombre": "Poconche" }, "geometry": { "type": "Point", "coordinates": [ -68.1949413, -22.9676578 ] } },
{ "type": "Feature", "properties": { "Region": "Antofagasta", "Provincia": null, "Comuna": null, "Nombre": "Purico" }, "geometry": { "type": "Point", "coordinates": [ -68.1880961, -22.8996239 ] } },
{ "type": "Feature", "properties": { "Region": "Antofagasta", "Provincia": null, "Comuna": null, "Nombre": "Quitor" }, "geometry": { "type": "Point", "coordinates": [ -68.2088973, -22.8964646 ] } },
{ "type": "Feature", "properties": { "Region": "Antofagasta", "Provincia": null, "Comuna": null, "Nombre": "Sequitor" }, "geometry": { "type": "Point", "coordinates": [ -68.2139861, -22.9406342 ] } },
{ "type": "Feature", "properties": { "Region": "Antofagasta", "Provincia": null, "Comuna": null, "Nombre": "Desierto" }, "geometry": { "type": "Point", "coordinates": [ -67.9114251, -23.572014 ] } },
{ "type": "Feature", "properties": { "Region": "Antofagasta", "Provincia": null, "Comuna": null, "Nombre": "El Tapial" }, "geometry": { "type": "Point", "coordinates": [ -67.8604728, -23.6118382 ] } },
{ "type": "Feature", "properties": { "Region": "Antofagasta", "Provincia": null, "Comuna": null, "Nombre": "Mal Paso" }, "geometry": { "type": "Point", "coordinates": [ -67.9256222, -23.5672435 ] } },
{ "type": "Feature", "properties": { "Region": "Antofagasta", "Provincia": null, "Comuna": null, "Nombre": "Oficina Tilopozo" }, "geometry": { "type": "Point", "coordinates": [ -68.2360567, -23.7952285 ] } },
{ "type": "Feature", "properties": { "Region": "Antofagasta", "Provincia": null, "Comuna": null, "Nombre": "Pe�aloza" }, "geometry": { "type": "Point", "coordinates": [ -67.887512, -23.5797681 ] } },
{ "type": "Feature", "properties": { "Region": "Antofagasta", "Provincia": null, "Comuna": null, "Nombre": "Santa Rosa" }, "geometry": { "type": "Point", "coordinates": [ -67.8907927, -23.5949894 ] } },
{ "type": "Feature", "properties": { "Region": "Antofagasta", "Provincia": null, "Comuna": null, "Nombre": "Tulan" }, "geometry": { "type": "Point", "coordinates": [ -68.0387378, -23.8091535 ] } },
{ "type": "Feature", "properties": { "Region": "Antofagasta", "Provincia": null, "Comuna": null, "Nombre": "Tumbre" }, "geometry": { "type": "Point", "coordinates": [ -67.7965233, -23.3233788 ] } },
{ "type": "Feature", "properties": { "Region": "Antofagasta", "Provincia": null, "Comuna": null, "Nombre": "Agua Buena" }, "geometry": { "type": "Point", "coordinates": [ -69.8936414, -24.3137204 ] } },
{ "type": "Feature", "properties": { "Region": "Antofagasta", "Provincia": null, "Comuna": null, "Nombre": "Cachinales" }, "geometry": { "type": "Point", "coordinates": [ -70.4367209, -25.1565879 ] } },
{ "type": "Feature", "properties": { "Region": "Antofagasta", "Provincia": null, "Comuna": null, "Nombre": "Cerro Negro" }, "geometry": { "type": "Point", "coordinates": [ -69.6284012, -23.9178216 ] } },
{ "type": "Feature", "properties": { "Region": "Antofagasta", "Provincia": null, "Comuna": null, "Nombre": "Caleta El Cobre" }, "geometry": { "type": "Point", "coordinates": [ -70.5281495, -24.2553385 ] } },
{ "type": "Feature", "properties": { "Region": "Antofagasta", "Provincia": null, "Comuna": null, "Nombre": "El Deserto" }, "geometry": { "type": "Point", "coordinates": [ -69.857799, -23.4236624 ] } },
{ "type": "Feature", "properties": { "Region": "Antofagasta", "Provincia": null, "Comuna": null, "Nombre": "Estaci�n Zaldivar" }, "geometry": { "type": "Point", "coordinates": [ -69.0620677, -24.1664765 ] } },
{ "type": "Feature", "properties": { "Region": "Antofagasta", "Provincia": null, "Comuna": null, "Nombre": "Llanos" }, "geometry": { "type": "Point", "coordinates": [ -69.819894, -23.8148114 ] } },
{ "type": "Feature", "properties": { "Region": "Antofagasta", "Provincia": null, "Comuna": null, "Nombre": "Santo Domingo" }, "geometry": { "type": "Point", "coordinates": [ -70.4972532, -25.1087031 ] } },
{ "type": "Feature", "properties": { "Region": "Antofagasta", "Provincia": null, "Comuna": null, "Nombre": "Oficina Cota" }, "geometry": { "type": "Point", "coordinates": [ -69.8687872, -24.077437 ] } },
{ "type": "Feature", "properties": { "Region": "Antofagasta", "Provincia": null, "Comuna": null, "Nombre": "Oficina Dominador" }, "geometry": { "type": "Point", "coordinates": [ -69.5077242, -24.3639073 ] } },
{ "type": "Feature", "properties": { "Region": "Antofagasta", "Provincia": null, "Comuna": null, "Nombre": "Oficina Esmeralda" }, "geometry": { "type": "Point", "coordinates": [ -69.8854971, -24.1544663 ] } },
{ "type": "Feature", "properties": { "Region": "Antofagasta", "Provincia": null, "Comuna": null, "Nombre": "Oficina Eugenia" }, "geometry": { "type": "Point", "coordinates": [ -69.8974167, -24.1392994 ] } },
{ "type": "Feature", "properties": { "Region": "Antofagasta", "Provincia": null, "Comuna": null, "Nombre": "Oficina Pampa Rica (ruins)" }, "geometry": { "type": "Point", "coordinates": [ -69.9342452, -24.0493058 ] } },
{ "type": "Feature", "properties": { "Region": "Antofagasta", "Provincia": null, "Comuna": null, "Nombre": "Oficina Pepita" }, "geometry": { "type": "Point", "coordinates": [ -69.8628511, -24.0740522 ] } },
{ "type": "Feature", "properties": { "Region": "Antofagasta", "Provincia": null, "Comuna": null, "Nombre": "Oficina San Martin" }, "geometry": { "type": "Point", "coordinates": [ -69.8250274, -24.2636813 ] } },
{ "type": "Feature", "properties": { "Region": "Antofagasta", "Provincia": null, "Comuna": null, "Nombre": "Oficina Santiago" }, "geometry": { "type": "Point", "coordinates": [ -69.917402, -24.1791191 ] } },
{ "type": "Feature", "properties": { "Region": "Antofagasta", "Provincia": null, "Comuna": null, "Nombre": "Palestina" }, "geometry": { "type": "Point", "coordinates": [ -69.735116, -23.8771315 ] } },
{ "type": "Feature", "properties": { "Region": "Antofagasta", "Provincia": null, "Comuna": null, "Nombre": "Caleta Constituci�n" }, "geometry": { "type": "Point", "coordinates": [ -70.593823, -23.4117601 ] } },
{ "type": "Feature", "properties": { "Region": "Antofagasta", "Provincia": null, "Comuna": null, "Nombre": "Cerro Moreno" }, "geometry": { "type": "Point", "coordinates": [ -70.4348804, -23.4361197 ] } },
{ "type": "Feature", "properties": { "Region": "Antofagasta", "Provincia": null, "Comuna": null, "Nombre": "Coloso" }, "geometry": { "type": "Point", "coordinates": [ -70.4609218, -23.7608436 ] } },
{ "type": "Feature", "properties": { "Region": "Antofagasta", "Provincia": null, "Comuna": null, "Nombre": "La Negra" }, "geometry": { "type": "Point", "coordinates": [ -70.3092458, -23.770927 ] } },
{ "type": "Feature", "properties": { "Region": "Antofagasta", "Provincia": null, "Comuna": null, "Nombre": "La Rinconada" }, "geometry": { "type": "Point", "coordinates": [ -70.5125386, -23.4641588 ] } },
{ "type": "Feature", "properties": { "Region": "Antofagasta", "Provincia": null, "Comuna": null, "Nombre": "Salar del Carmen" }, "geometry": { "type": "Point", "coordinates": [ -70.2892193, -23.6268066 ] } },
{ "type": "Feature", "properties": { "Region": "Antofagasta", "Provincia": null, "Comuna": null, "Nombre": "Pajonales" }, "geometry": { "type": "Point", "coordinates": [ -67.814916, -22.9478444 ] } },
{ "type": "Feature", "properties": { "Region": "Antofagasta", "Provincia": null, "Comuna": null, "Nombre": "Caleta El Fierro" }, "geometry": { "type": "Point", "coordinates": [ -70.2716629, -22.6443943 ] } },
{ "type": "Feature", "properties": { "Region": "Antofagasta", "Provincia": null, "Comuna": null, "Nombre": "Playa El Bote" }, "geometry": { "type": "Point", "coordinates": [ -70.6012505, -23.3902918 ] } },
{ "type": "Feature", "properties": { "Region": "Antofagasta", "Provincia": null, "Comuna": null, "Nombre": "Punta Gualaguala" }, "geometry": { "type": "Point", "coordinates": [ -70.3033107, -22.761547 ] } },
{ "type": "Feature", "properties": { "Region": "Antofagasta", "Provincia": null, "Comuna": null, "Nombre": "Pozo Lastre" }, "geometry": { "type": "Point", "coordinates": [ -70.4456921, -23.7495389 ] } },
{ "type": "Feature", "properties": { "Region": "Antofagasta", "Provincia": null, "Comuna": null, "Nombre": "Punta Plata" }, "geometry": { "type": "Point", "coordinates": [ -70.563438, -24.6475254 ] } },
{ "type": "Feature", "properties": { "Region": "Antofagasta", "Provincia": null, "Comuna": null, "Nombre": "Rio Blanco" }, "geometry": { "type": "Point", "coordinates": [ -67.8159332, -22.6329861 ] } },
{ "type": "Feature", "properties": { "Region": "Antofagasta", "Provincia": null, "Comuna": null, "Nombre": "Britania" }, "geometry": { "type": "Point", "coordinates": [ -68.8211799, -22.36646 ] } },
{ "type": "Feature", "properties": { "Region": "Antofagasta", "Provincia": null, "Comuna": null, "Nombre": "Campamento La Paloma" }, "geometry": { "type": "Point", "coordinates": [ -69.2963709, -22.9252096 ] } },
{ "type": "Feature", "properties": { "Region": "Antofagasta", "Provincia": null, "Comuna": null, "Nombre": "Valle del Arco �ris" }, "geometry": { "type": "Point", "coordinates": [ -68.2463773, -22.6348676 ] } },
{ "type": "Feature", "properties": { "Region": "Antofagasta", "Provincia": null, "Comuna": null, "Nombre": "Ca��n de Guatin" }, "geometry": { "type": "Point", "coordinates": [ -68.084874, -22.7705055 ] } },
{ "type": "Feature", "properties": { "Region": "Antofagasta", "Provincia": null, "Comuna": null, "Nombre": "Cuevitas" }, "geometry": { "type": "Point", "coordinates": [ -69.9538524, -23.3963588 ] } },
{ "type": "Feature", "properties": { "Region": "Antofagasta", "Provincia": null, "Comuna": null, "Nombre": "Socompa" }, "geometry": { "type": "Point", "coordinates": [ -68.2881617, -24.452951 ] } },
{ "type": "Feature", "properties": { "Region": "Antofagasta", "Provincia": null, "Comuna": null, "Nombre": "Paso Malo" }, "geometry": { "type": "Point", "coordinates": [ -70.4447115, -25.3470221 ] } },
{ "type": "Feature", "properties": { "Region": "Antofagasta", "Provincia": null, "Comuna": null, "Nombre": "La Cachina" }, "geometry": { "type": "Point", "coordinates": [ -70.4504514, -25.437229 ] } },
{ "type": "Feature", "properties": { "Region": "Antofagasta", "Provincia": null, "Comuna": null, "Nombre": "Lipigas Alto" }, "geometry": { "type": "Point", "coordinates": [ -70.4524899, -25.4174235 ] } },
{ "type": "Feature", "properties": { "Region": "Antofagasta", "Provincia": null, "Comuna": null, "Nombre": "El Gaucho" }, "geometry": { "type": "Point", "coordinates": [ -70.4809588, -24.9611845 ] } },
{ "type": "Feature", "properties": { "Region": "Antofagasta", "Provincia": null, "Comuna": null, "Nombre": "Caleta Err�zuriz" }, "geometry": { "type": "Point", "coordinates": [ -70.6046757, -23.4720347 ] } },
{ "type": "Feature", "properties": { "Region": "Antofagasta", "Provincia": null, "Comuna": null, "Nombre": "Guanillos" }, "geometry": { "type": "Point", "coordinates": [ -70.2522925, -22.403825 ] } },
{ "type": "Feature", "properties": { "Region": "Antofagasta", "Provincia": null, "Comuna": null, "Nombre": "Matancilla" }, "geometry": { "type": "Point", "coordinates": [ -68.2320177, -22.6257447 ] } },
{ "type": "Feature", "properties": { "Region": "Antofagasta", "Provincia": null, "Comuna": null, "Nombre": "Orilla Solor" }, "geometry": { "type": "Point", "coordinates": [ -68.1692058, -22.9510184 ] } },
{ "type": "Feature", "properties": { "Region": "Antofagasta", "Provincia": null, "Comuna": null, "Nombre": "Villa Solor" }, "geometry": { "type": "Point", "coordinates": [ -68.1849825, -22.9380559 ] } },
{ "type": "Feature", "properties": { "Region": "Antofagasta", "Provincia": null, "Comuna": null, "Nombre": "Solcor" }, "geometry": { "type": "Point", "coordinates": [ -68.19822, -22.9193901 ] } },
{ "type": "Feature", "properties": { "Region": "Antofagasta", "Provincia": null, "Comuna": null, "Nombre": "Condeduque" }, "geometry": { "type": "Point", "coordinates": [ -68.2066119, -22.9153832 ] } },
{ "type": "Feature", "properties": { "Region": "Antofagasta", "Provincia": null, "Comuna": null, "Nombre": "Larache" }, "geometry": { "type": "Point", "coordinates": [ -68.2037151, -22.9231059 ] } },
{ "type": "Feature", "properties": { "Region": "Antofagasta", "Provincia": null, "Comuna": null, "Nombre": "Yaye" }, "geometry": { "type": "Point", "coordinates": [ -68.2138324, -22.9255862 ] } },
{ "type": "Feature", "properties": { "Region": "Antofagasta", "Provincia": null, "Comuna": null, "Nombre": "Checar" }, "geometry": { "type": "Point", "coordinates": [ -68.2104313, -22.9310455 ] } },
{ "type": "Feature", "properties": { "Region": "Antofagasta", "Provincia": null, "Comuna": null, "Nombre": "Alto La Madera" }, "geometry": { "type": "Point", "coordinates": [ -70.7169329, -25.8325445 ] } },
{ "type": "Feature", "properties": { "Region": "Antofagasta", "Provincia": null, "Comuna": null, "Nombre": "Las Guaneras" }, "geometry": { "type": "Point", "coordinates": [ -70.5763181, -25.5075881 ] } },
{ "type": "Feature", "properties": { "Region": "Antofagasta", "Provincia": null, "Comuna": null, "Nombre": "Las T�rtolas" }, "geometry": { "type": "Point", "coordinates": [ -70.6423326, -25.5387853 ] } },
{ "type": "Feature", "properties": { "Region": "Antofagasta", "Provincia": null, "Comuna": null, "Nombre": "Campamento Andino" }, "geometry": { "type": "Point", "coordinates": [ -68.0583045, -23.5393637 ] } },
{ "type": "Feature", "properties": { "Region": "Antofagasta", "Provincia": null, "Comuna": null, "Nombre": "La Banda" }, "geometry": { "type": "Point", "coordinates": [ -68.0057385, -23.1870799 ] } },
{ "type": "Feature", "properties": { "Region": "Antofagasta", "Provincia": null, "Comuna": null, "Nombre": "Toconao" }, "geometry": { "type": "Point", "coordinates": [ -68.0070405, -23.1905207 ] } },
{ "type": "Feature", "properties": { "Region": "Antofagasta", "Provincia": null, "Comuna": null, "Nombre": "Quepiaco" }, "geometry": { "type": "Point", "coordinates": [ -67.6011342, -23.0774053 ] } },
{ "type": "Feature", "properties": { "Region": "Antofagasta", "Provincia": null, "Comuna": null, "Nombre": "Ministro Hales" }, "geometry": { "type": "Point", "coordinates": [ -68.9140713, -22.4028207 ] } },
{ "type": "Feature", "properties": { "Region": "Antofagasta", "Provincia": null, "Comuna": null, "Nombre": "Caleta Bandurrias" }, "geometry": { "type": "Point", "coordinates": [ -70.4350685, -25.1940474 ] } }
],
"type": "FeatureCollection"}
